locationCityName,locationAreaName,latitude,longitude,locationRegionName,locationDistrictName
Casablanca,Abdelmoumen,33.5705527,-7.6259823,Casablanca-Settat,Prefecture of Casablanca
Casablanca,Quartier des Hôpitaux,33.578,-7.615,,Prefecture of Casablanca
Drargua,Toute la ville,30.4529,-9.48082,,
Casablanca,Sidi Maarouf,33.5286123,-7.646462,,Prefecture of Casablanca
Salé,Said Hajji,34.0746737,-6.7934313,,Prefecture of Salé
Marrakech,Route de Fès,31.6448361,-7.9864275,Marrakech-Safi,Marrakesh Prefecture
Casablanca,Sidi Moumen,33.5843834,-7.5072051,,Prefecture of Casablanca
Kénitra,Centre,34.26101,-6.5802,,
Kénitra,Autre secteur,34.26101,-6.5802,,
Kénitra,El Haouzia,34.2661575,-6.6160579,,Kénitra Province
Fnideq,Toute la ville,35.84906,-5.35747,,
Settat,Toute la ville,33.00103,-7.61662,,
Casablanca,Autre secteur,33.58831,-7.61138,,
Martil,Toute la ville,35.61662,-5.27522,,
Cabo Negro,Toute la ville,35.77651,-5.35904,,
Casablanca,Bournazil,33.58831,-7.61138,,
Tanger,Hay Hassani,35.7462879,-5.8498403,Tangier-Tetouan-Al Hoceima,Prefecture of Tangier - Assilah
Casablanca,Errahma,33.5500144,-7.6979392,,Prefecture of Casablanca
Meknès,Bourj Moulay Omar,32.16667,-4.8,,
Casablanca,Aïn Chock,33.5370603,-7.5981542,Casablanca-Settat,Prefecture of Casablanca
Tamesna,Toute la ville,31.24342,-7.40916,,
Casablanca,Sidi Bernoussi,33.6190686,-7.5003234,,Prefecture of Casablanca
Errahma,Toute la ville,32.0,-6.0,,
Casablanca,Sidi Othmane,33.5570072,-7.5603844,,Prefecture of Casablanca
Casablanca,Bourgogne,33.5985679,-7.6418596,,Prefecture of Casablanca
Taza,Toute la ville,34.21,-4.01,,
Agadir,Cité Adrar,30.42018,-9.59815,,
Casablanca,Californie,33.5411922,-7.626038,,Prefecture of Casablanca
Tanger,Malabata,35.7785538,-5.7768233,Tangier-Tetouan-Al Hoceima,Prefecture of Tangier - Assilah
Bouznika,Autre secteur,33.78942,-7.15968,,
Marrakech,Agdal,31.5927743,-7.9987925,Marrakech-Safi,Marrakesh Prefecture
Agadir,Hay Dakhla,30.4111874,-9.5567663,Souss-Massa,Agadir Ida-Outanane Prefecture
Sidi Kacem,Toute la ville,34.58333,-5.75,,
Marrakech,Jemaa El Fna,31.6258306,-7.9889197,Marrakech-Safi,Marrakesh Prefecture
Marrakech,Guéliz,31.6321881,-8.0108135,Marrakech-Safi,Marrakesh Prefecture
Agadir,Hay Mohammadi,30.4330512,-9.5511547,Souss-Massa,Agadir Ida-Outanane Prefecture
Sidi Bouzid,Toute la ville,33.23151,-8.55062,,
Fès,Route d'Immouzere,34.03715,-4.9998,,
Saidia,Toute la ville,35.0875,-2.23786,,
Meknès,Riad Toulal,33.8960002,-5.5985156,Fez-Meknes,Meknès Prefecture
Casablanca,Oulfa,33.5512304,-7.6845634,,Prefecture of Casablanca
Asilah,Toute la ville,35.46522,-6.03415,,
Casablanca,Al Qods,33.5436704,-7.5819537,,Prefecture of Casablanca
Marrakech,M'Hamid,31.5912101,-8.0477137,Marrakech-Safi,Marrakesh Prefecture
El Mansouria,Toute la ville,33.7387,-7.26452,,
Bouskoura,Bouskoura centre,33.44976,-7.65239,,
Casablanca,Maârif Extension,33.579103,-7.641645,,Prefecture of Casablanca
El Jadida,Najd,33.2284098,-8.5064319,,El Jadida Province
Mohammedia,Autre secteur,33.68607,-7.38298,,
Dar Bouazza,Toute la ville,33.51535,-7.81677,,
Ain Taoujdate,Toute la ville,33.93575,-5.21328,,
Casablanca,Aïn Borja,33.5803751,-7.5918549,,Prefecture of Casablanca
Fès,Ouled Tayeb,33.959838,-4.99562,Fez-Meknes,Fez Prefecture
Khemisset,Toute la ville,33.82404,-6.06627,,
Casablanca,Casablanca Finance City,33.5587873,-7.6567602,,Prefecture of Casablanca
Oualidia,Toute la ville,32.73372,-9.03059,,
Sidi Rahal,Toute la ville,31.24693,-8.65456,,
Oujda,Hay zitoune,34.6738279,-1.8866757,Oriental,Oujda-Angad Prefecture
Tétouan,Safir,35.5816982,-5.3519072,Tangier-Tetouan-Al Hoceima,Tetouan Province
Salé,Toute la ville,34.0531,-6.79846,,
Casablanca,Derb Ghallef,33.5709119,-7.6300874,Casablanca-Settat,Prefecture of Casablanca
Marrakech,Route de Tamansourt,31.63416,-7.99994,,
Marrakech,Hay Izdihar,31.63416,-7.99994,,
Casablanca,2 Mars,33.58831,-7.61138,,
Casablanca,Polo,33.58831,-7.61138,,
Kénitra,El Haddada,34.2257251,-6.5159424,,Kénitra Province
Salé,Sala El Jadida,33.9957541,-6.7375389,,Prefecture of Salé
Agadir,Secteur Touristique,30.42018,-9.59815,,
Meknès,El Bassatine,33.8913978,-5.4984909,Fez-Meknes,Meknès Prefecture
Oujda,Autre secteur,34.68053,-1.90764,,
Casablanca,Ain Sebaa,33.6059943,-7.5387936,,Prefecture of Casablanca
Agadir,Bouargane,30.42018,-9.59815,,
El Jadida,Autre secteur,32.9,-8.5,,
Marrakech,Route d'Ourika,31.63416,-7.99994,,
Nador,Autre secteur,35.16813,-2.93352,,
Fès,Agdal,34.0379627,-4.9997468,Fez-Meknes,Fez Prefecture
Fquih Ben Saleh,Toute la ville,32.0,-6.0,,
Nouaceur,Toute la ville,33.3802,-7.62105,,
Fès,Route Ain Chkaf,34.03715,-4.9998,,
Agadir,Hay Salam,30.401701,-9.5479748,Souss-Massa,Agadir Ida-Outanane Prefecture
Oujda,Hay Lazaret,34.6838082,-1.8780426,Oriental,Oujda-Angad Prefecture
Temara,Harhoura,33.914435,-6.9702597,,Skhirat-Témara Prefecture
Tanger,Tanja Balia,35.7714141,-5.7690936,Tangier-Tetouan-Al Hoceima,Prefecture of Tangier - Assilah
Bni Ansar,Toute la ville,35.23422,-2.92516,,
Mehdia,Toute la ville,34.26314,-6.65085,,
Berkane,Toute la ville,34.61,-2.57,,
Tanger,Azib Haj Kaddour,35.76727,-5.79975,,
Selouane,Toute la ville,35.07313,-2.9423,,
Marrakech,Annakhil,31.6509445,-7.9592152,Marrakech-Safi,Marrakesh Prefecture
El Jadida,Saada,33.2407724,-8.5335317,,El Jadida Province
Fès,Narjis,34.0084593,-4.9673541,Fez-Meknes,Fez Prefecture
Fès,Centre,34.03715,-4.9998,,
Oujda,Centre Ville,34.680741,-1.9176354,Oriental,Oujda-Angad Prefecture
Casablanca,Racine,33.590265,-7.640054,Casablanca-Settat,Prefecture of Casablanca
Tanger,Ahlane,35.76727,-5.79975,,
Tanger,Centre ville,35.196734,-6.1521045,Tangier-Tetouan-Al Hoceima,Larache Province
Temara,Wifak,33.9270952,-6.9325478,,Skhirat-Témara Prefecture
Casablanca,Beauséjour,33.5684105,-7.6492935,Casablanca-Settat,Prefecture of Casablanca
Temara,Ain Atig,33.92866,-6.90656,,
Fès,Route de Sefrou,34.0212182,-4.9879182,Fez-Meknes,Fez Prefecture
Al Hoceima,Toute la ville,35.25165,-3.93723,,
Had Soualem,Toute la ville,33.45934,-7.86493,,
Mirleft,Toute la ville,29.51525,-10.06542,,
Casablanca,C.I.L,33.5673558,-7.6562059,Casablanca-Settat,Prefecture of Casablanca
Marrakech,Av Abdelkrim El Khattabi,31.63416,-7.99994,,
Oujda,Agdal,34.6754794,-1.857572,Oriental,Oujda-Angad Prefecture
Salé,Hay Rahma,34.0567719,-6.7960569,,Prefecture of Salé
Deroua,Toute la ville,33.41,-7.53,,
Agadir,Agadir Oufella,30.4244851,-9.6114672,Souss-Massa,Agadir Ida-Outanane Prefecture
Oujda,Hay fath,34.6927712,-1.8765835,Oriental,Oujda-Angad Prefecture
Fès,Zouagha,34.0174142,-5.0541572,Fez-Meknes,Fez Prefecture
Marrakech,Azzouzia,31.6886233,-8.0722124,Marrakech-Safi,Marrakesh Prefecture
Rabat,Massira,33.9722609,-6.8887293,,Rabat Prefecture
Tanger,Achennad,35.7404209,-5.8286718,Tangier-Tetouan-Al Hoceima,Prefecture of Tangier - Assilah
Tétouan,Sidi Talha,35.5690299,-5.3694364,Tangier-Tetouan-Al Hoceima,Tetouan Province
Fès,Ben Souda,34.0068845,-5.0676692,Fez-Meknes,Fez Prefecture
Rabat,Autre secteur,34.01325,-6.83255,,
Benslimane,Autre secteur,33.62018,-7.1246,,
Agadir,Ben Serguaou,30.42018,-9.59815,,
Casablanca,Al Mostakbal,33.5314669,-7.647473,,Prefecture of Casablanca
Casablanca,Belvédère,33.58831,-7.61138,,
Tétouan,El Matar,35.57845,-5.36837,,
Bouznika,Plage Oued Cherrat,33.78942,-7.15968,,
Marrakech,Daoudiate,31.6539419,-7.9938779,Marrakech-Safi,Marrakesh Prefecture
Marrakech,Av Mohammed VI,31.5767822,-7.9846979,Marrakech-Safi,Marrakesh Prefecture
Rabat,Mabella,33.9957769,-6.8194986,,Rabat Prefecture
Fès,Mont fleuri,34.0164884,-4.9900381,Fez-Meknes,Fez Prefecture
Sidi Slimane,Toute la ville,34.26479,-5.92598,,
Oujda,Hay Boudir,34.6886811,-1.9075503,Oriental,Oujda-Angad Prefecture
Casablanca,Maarif,33.5836296,-7.6367005,Casablanca-Settat,Prefecture of Casablanca
Marrakech,Route d'Amezmiz,31.63416,-7.99994,,
Mohammedia,Quartier du Parc,33.68607,-7.38298,,
Dakhla,Essalam,23.6906114,-15.9403861,Dakhla-Oued Ed-Dahab,
Béni Mellal,Toute la ville,34.91,-4.35,,
Salé,Tabriquet,34.0554847,-6.7887259,,Prefecture of Salé
Kénitra,Maamora,34.2583411,-6.5830166,,Kénitra Province
Imouzzer-Kendar,Toute la ville,32.0,-6.0,,
Rabat,Yacoub El Mansour,33.9738778,-6.8926131,,Rabat Prefecture
Larache,Toute la ville,35.16667,-5.83333,,
Rabat,Aviation,34.0479322,-6.7741724,,Prefecture of Salé
Skhirat,Autre secteur,33.84984,-7.04037,,
Fès,Autre secteur,34.03715,-4.9998,,
Safi,Azib Derai,32.16667,-8.83333,,
Rabat,Souissi,33.9688418,-6.8348164,,Rabat Prefecture
Settat,Mania,33.0030219,-7.6091124,,Settat Province
El Jadida,Al Boustane,33.2258947,-8.4948742,,El Jadida Province
Salé,Hay Salam,34.0434739,-6.7846875,,Prefecture of Salé
Casablanca,Hay Hassani,33.5702887,-7.678495,Casablanca-Settat,Prefecture of Casablanca
Berrechid,Toute la ville,33.26553,-7.58754,,
Marrakech,Rouidat,31.63416,-7.99994,,
Fès,Al Hadiqa,34.03715,-4.9998,,
Salé,Pépinière,34.0531,-6.79846,,
Agadir,Illigh,30.440023,-9.5901521,Souss-Massa,Agadir Ida-Outanane Prefecture
Salé,Sidi Moussa,34.0413652,-6.8202537,,Prefecture of Salé
Marrakech,Hivernage,31.6225589,-8.0083128,Marrakech-Safi,Marrakesh Prefecture
Mohammedia,Hay Annasr,33.68607,-7.38298,,
Salé,Hay Karima,34.0506941,-6.797682,,Prefecture of Salé
Salé,Bettana,34.0313433,-6.8108383,,Prefecture of Salé
Mohammedia,El Kasbah,33.68607,-7.38298,,
Tanger,Marjane,35.7462167,-5.8448104,Tangier-Tetouan-Al Hoceima,Prefecture of Tangier - Assilah
Mohammedia,Centre Ville,33.68607,-7.38298,,
Marrakech,Issil,31.661077,-8.0103468,Marrakech-Safi,Marrakesh Prefecture
Casablanca,Lissasfa,33.5314545,-7.6724261,Casablanca-Settat,Prefecture of Casablanca
El Jadida,Centre,32.9,-8.5,,
Taghazout,Toute la ville,30.54259,-9.71115,,
Essaouira,Tafoukt,31.5163387,-9.7528888,Marrakech-Safi,Essaouira Province
Tanger,Mghogha,35.7487231,-5.7794545,Tangier-Tetouan-Al Hoceima,Prefecture of Tangier - Assilah
Safi,Autre secteur,32.16667,-8.83333,,
Taroudant,Toute la ville,30.47028,-8.87695,,
Fès,Oued Fès,34.0614378,-4.9806108,Fez-Meknes,Fez Prefecture
Kénitra,Fouarate,34.2612038,-6.5364478,,Kénitra Province
Mohammedia,Mimosas,33.68607,-7.38298,,
Azemmour,Toute la ville,33.28952,-8.3425,,
El Jadida,Alaouiyine,32.9,-8.5,,
Kénitra,Ouled Oujih,34.2595543,-6.6218953,,Kénitra Province
Marrakech,Mabrouka,31.6238693,-7.989414,Marrakech-Safi,Marrakesh Prefecture
Casablanca,Aïn Diab,33.5811626,-7.6843877,Casablanca-Settat,Prefecture of Casablanca
Azla,Toute la ville,35.55303,-5.24472,,
Casablanca,Sbata,33.5376589,-7.564046,,Prefecture of Casablanca
Casablanca,Al Madina Aljadida,33.5546607,-7.5340457,,Prefecture of Casablanca
Marrakech,Bouaakkaz,31.5937554,-8.0211261,Marrakech-Safi,Marrakesh Prefecture
Tanger,Aida,35.7591223,-5.843128,Tangier-Tetouan-Al Hoceima,Prefecture of Tangier - Assilah
Tanger,Beni Makada Lakdima,35.76727,-5.79975,,
Ahfir,Toute la ville,34.95368,-2.10027,,
Midelt,Toute la ville,32.6852,-4.74512,,
Casablanca,Gauthier,33.5898333,-7.6306305,Casablanca-Settat,Prefecture of Casablanca
Ahmar Laglalcha,Toute la ville,30.48922,-8.96879,,
El Jadida,Hay Essalam,33.2251359,-8.5003039,,El Jadida Province
Tanger,Zemmouri,35.739249,-5.867097,Tangier-Tetouan-Al Hoceima,Prefecture of Tangier - Assilah
Tanger,Makhoukha,35.76727,-5.79975,,
Marrakech,Bab Ghmat,31.6194923,-7.9747475,Marrakech-Safi,Marrakesh Prefecture
Meknès,La Hacienda,32.16667,-4.8,,
Meknès,Autre secteur,32.16667,-4.8,,
Marrakech,Rmila,31.63416,-7.99994,,
Tifelt,Toute la ville,32.0,-6.0,,
Mers El Kheir,Toute la ville,33.88656,-6.8988,,
Mansoura,Toute la ville,34.84335,-4.9626,,
Oulad M'barek,Toute la ville,32.28413,-6.4476,,
El Jadida,Sidi Moussa,33.2349309,-8.4896076,,El Jadida Province
Tanger,Aouama Gharbia,35.7261824,-5.8038898,Tangier-Tetouan-Al Hoceima,Prefecture of Tangier - Assilah
Nador,Hay Al Matar,35.1501931,-2.9183282,Oriental,Nador Province
Marrakech,Targa,31.6533786,-8.0664358,Marrakech-Safi,Marrakesh Prefecture
Casablanca,Nassim,33.5425588,-7.6519206,,Prefecture of Casablanca
Sidi Ifni,Toute la ville,29.37975,-10.17299,,
Tamaris,Toute la ville,32.0,-6.0,,
Casablanca,La Gironde,33.5877705,-7.6012121,,Prefecture of Casablanca
Agadir,Zone Industrielle Agadir,30.3320486,-9.4920134,Souss-Massa,Inezgane-Ait Melloul Prefecture
Meknès,Sidi Amar Hassini,32.16667,-4.8,,
Chtouka,Toute la ville,33.29631,-8.16827,,
Casablanca,Hay Chrifa,33.5349779,-7.609844,,Prefecture of Casablanca
Casablanca,Hay Moulay Rachid,33.5650229,-7.5427773,,Prefecture of Casablanca
Casablanca,Les Princesses,33.5770141,-7.6480351,,Prefecture of Casablanca
Fès,Route de Meknes,34.0388558,-5.0243569,Fez-Meknes,Fez Prefecture
Tanger,Autre secteur,35.76727,-5.79975,,
Kénitra,Ouled Arfa,34.2421565,-6.5456686,,Kénitra Province
Marrakech,Route de Sidi A. Ghiat,31.63416,-7.99994,,
Tanger,Bir Chairi,35.7541652,-5.8117659,Tangier-Tetouan-Al Hoceima,Prefecture of Tangier - Assilah
Tanger,Centre,35.76727,-5.79975,,
Kénitra,La Ville Haute,34.2609146,-6.5902809,,Kénitra Province
Temara,Centre Ville,33.92866,-6.90656,,
Tétouan,Centre ville,35.196734,-6.1521045,Tangier-Tetouan-Al Hoceima,Larache Province
Casablanca,Hay Albaraka,33.58831,-7.61138,,
Oued Laou,Toute la ville,35.4484,-5.09627,,
El Jadida,Lot Rida,32.9,-8.5,,
Azrou,Toute la ville,33.43443,-5.22126,,
Khouribga,Toute la ville,32.93333,-6.6,,
Ksar el-Kebir,Toute la ville,35.00174,-5.90534,,
Salé,Cherkaoui - Marzouka,34.0531,-6.79846,,
Tanger,Port Tanger ville,35.76727,-5.79975,,
Tanger,Achakar,35.776388,-5.9302808,Tangier-Tetouan-Al Hoceima,Prefecture of Tangier - Assilah
Marrakech,Allal El Fassi,31.6521873,-8.0013621,Marrakech-Safi,Marrakesh Prefecture
Tanger,Mediouna,35.7718665,-5.9089654,Tangier-Tetouan-Al Hoceima,Prefecture of Tangier - Assilah
Salé,Hay Oued Dahab,34.0531,-6.79846,,
Ain Aouda,Toute la ville,32.0,-6.0,,
Ain Erreggada,Toute la ville,34.93199,-2.23729,,
Marrakech,Hay Charaf,31.63416,-7.99994,,
Fès,Hay Atlas,34.0307453,-4.9944127,Fez-Meknes,Fez Prefecture
Rabat,Hay Arrachad,34.01325,-6.83255,,
Ifrane,La belle vue,33.33333,-5.25,,
Bouskoura,Victoria,33.4181692,-7.6726284,,Nouaceur Province
Casablanca,Mers Sultan,33.5698317,-7.6088337,,Prefecture of Casablanca
Tétouan,Torrota,35.57845,-5.36837,,
Meknès,Hamria,33.8904034,-5.5778999,Fez-Meknes,Meknès Prefecture
Bir Jdid,Toute la ville,33.37362,-7.99462,,
Mohammedia,Riad 1,33.68607,-7.38298,,
Temara,Massira 2,33.9265542,-6.8999464,,Skhirat-Témara Prefecture
Tanger,Aharrarine,35.76727,-5.79975,,
Fès,Tghat,34.0429843,-5.0040797,Fez-Meknes,Fez Prefecture
Tanger,De La Plage,35.7830617,-5.8106692,Tangier-Tetouan-Al Hoceima,Prefecture of Tangier - Assilah
Tanger,Branes 1,35.7470171,-5.8673859,Tangier-Tetouan-Al Hoceima,Prefecture of Tangier - Assilah
Salé,Cité Militaire,34.0531,-6.79846,,
Temara,Autre secteur,33.92866,-6.90656,,
Mohammedia,Hay Al Falah,33.68607,-7.38298,,
Casablanca,Val Fleuri,33.574874,-7.6373849,,Prefecture of Casablanca
Oujda,Route Tayret,34.68053,-1.90764,,
Fès,Sehb El Ward,34.03715,-4.9998,,
Salé,Medina,34.037,-6.819,,Prefecture of Salé
Kénitra,Bir Rami,34.2472614,-6.6029709,,Kénitra Province
Mohammedia,Monica,33.7121484,-7.3550503,,Prefecture of Mohammédia
Casablanca,Ben M'sick,33.5542611,-7.5813658,,Prefecture of Casablanca
Marrakech,Route de Casablanca,31.6787911,-7.9993813,Marrakech-Safi,Marrakesh Prefecture
El Kelâa des Sraghna,Toute la ville,33.85922,-4.5804,,
Salé,Sidi Abdellah,34.0778754,-6.7676225,,Prefecture of Salé
Meknès,Marjane 2,33.8658205,-5.5849201,Fez-Meknes,Meknès Prefecture
Oujda,CGI,34.7182515,-1.9238896,Oriental,Oujda-Angad Prefecture
Rabat,Hay Nahda,33.9779476,-6.8161983,,Rabat Prefecture
Casablanca,Hay Mohammadi,33.5841444,-7.5569559,,Prefecture of Casablanca
Mohammedia,Partie Est,33.68607,-7.38298,,
Tit Mellil,Toute la ville,33.55808,-7.48647,,
Oujda,Boustane,34.6973399,-1.8855601,Oriental,Oujda-Angad Prefecture
Meknès,Zitoune,33.8592932,-5.5587786,Fez-Meknes,Meknès Prefecture
Casablanca,Hay El Farah,33.5682583,-7.5871927,,Prefecture of Casablanca
Rabat,Quartier de l'Océan,34.01325,-6.83255,,
Nador,Aarid,35.16813,-2.93352,,
Marrakech,Centre Ville,31.63416,-7.99994,,
Boujniba,Toute la ville,32.90046,-6.77464,,
Agadir,Charaf,30.4333735,-9.5893258,Souss-Massa,Agadir Ida-Outanane Prefecture
Salé,Bab Sebta,34.0425151,-6.8222569,,Prefecture of Salé
Meknès,Ancienne Médina,32.16667,-4.8,,
Meknès,Hay Salam,33.8940706,-5.5816543,Fez-Meknes,Meknès Prefecture
Agadir,Autre secteur,30.42018,-9.59815,,
Temara,Riad Oulad Mtaa,33.92866,-6.90656,,
Safi,Lamiaa,32.16667,-8.83333,,
Tanger,Branes 2,35.7470171,-5.8673859,Tangier-Tetouan-Al Hoceima,Prefecture of Tangier - Assilah
Guercif,Toute la ville,34.22568,-3.35361,,
Ain Leuh,Toute la ville,33.28819,-5.33722,,
Demnate,Toute la ville,31.73443,-7.00505,,
Fès,Hay Saada,34.03715,-4.9998,,
Salé,Abouab Sala,33.9267824,-6.9291602,,Skhirat-Témara Prefecture
Kénitra,Khabazat,34.2646071,-6.565231,,Kénitra Province
Tanger,Haddad,35.7384367,-5.8050053,Tangier-Tetouan-Al Hoceima,Prefecture of Tangier - Assilah
Temara,Maghreb Arabi,33.926394,-6.8911855,,Skhirat-Témara Prefecture
Mohammedia,Wafa,33.7004178,-7.3965669,,Prefecture of Mohammédia
Casablanca,Centre Ville,33.248283,-8.4984575,,El Jadida Province
Casablanca,Hay Rajaa,33.58831,-7.61138,,
Casablanca,Sidi Belyout,33.5986627,-7.613942,,Prefecture of Casablanca
Mohammedia,El Alia,33.6896168,-7.3884825,,Prefecture of Mohammédia
Casablanca,Roches Noires,33.5931914,-7.5957822,,Prefecture of Casablanca
Tétouan,Autre secteur,35.57845,-5.36837,,
Laâyoune,Toute la ville,27.83333,-12.33333,,
Oujda,Hay El Qods,34.68053,-1.90764,,
Sidi Allal El Bahraoui,Toute la ville,34.00747,-6.52879,,
Tiznit,Toute la ville,29.69742,-9.73162,,
Rabat,Hassan,34.0139405,-6.8256177,,Rabat Prefecture
Sefrou,Toute la ville,33.83186,-4.828,,
Mohammedia,Hassania 2,33.685229,-7.3792832,,Prefecture of Mohammédia
Casablanca,Route d'El Jadida,33.5437502,-7.653326,,Prefecture of Casablanca
Marrakech,Massira 2,31.6367391,-8.0665973,Marrakech-Safi,Marrakesh Prefecture
Agadir,Centre Ville,30.42018,-9.59815,,
Ain Attig,Toute la ville,33.8789,-6.96052,,
Marrakech,Route de Ouarzazate,31.63416,-7.99994,,
Agadir,Av des Far,30.42018,-9.59815,,
Temara,Firdaouss,33.92866,-6.90656,,
Kénitra,Al Maghrib Al Arabi,33.9198473,-6.8899224,,Skhirat-Témara Prefecture
Aklim,Toute la ville,34.92,-2.43,,
Marrakech,Es Saada,31.62101,-8.13025,,
Tanger,Ben Dibane,35.7591081,-5.8261108,Tangier-Tetouan-Al Hoceima,Prefecture of Tangier - Assilah
Rabat,Aakkari,34.006362,-6.8560583,,Rabat Prefecture
Casablanca,Anfa,33.5891377,-7.6634897,,Prefecture of Casablanca
Ifrane,Autre secteur,33.33333,-5.25,,
Mohammedia,Nassim,33.6794364,-7.4021228,,Prefecture of Mohammédia
Meknès,Sidi Bouzekri,33.8588975,-5.5329894,Fez-Meknes,Meknès Prefecture
Tanger,Mesnana,35.7564316,-5.8583,Tangier-Tetouan-Al Hoceima,Prefecture of Tangier - Assilah
Meknès,Sidi Said,33.8904123,-5.5780284,Fez-Meknes,Meknès Prefecture
Tanger,Val Fleuri,35.769499,-5.8358982,Tangier-Tetouan-Al Hoceima,Prefecture of Tangier - Assilah
Rabat,Aviation - Mabella,34.01325,-6.83255,,
Marrakech,Les Portes de Marrakech,31.6395279,-8.0775474,Marrakech-Safi,Marrakesh Prefecture
Fès,Hay Riad,34.0261278,-5.0099827,Fez-Meknes,Fez Prefecture
Nador,Ouled mimoun,35.1727969,-2.9347161,Oriental,Nador Province
Marrakech,Autre secteur,31.63416,-7.99994,,
Marrakech,Oued Ourika,31.2021332,-7.7296196,Marrakech-Safi,Al Haouz Province
Oujda,Hay Takkadom,34.68053,-1.90764,,
Mohammedia,La Siesta,33.7155202,-7.3482556,,Prefecture of Mohammédia
Rabat,Kébibat,34.013238,-6.8522293,,Rabat Prefecture
Temara,Abbadi,33.92866,-6.90656,,
El Jadida,Quartier Aérodrome,32.9,-8.5,,
Marrakech,Afaq,31.6485126,-8.1196827,Marrakech-Safi,Marrakesh Prefecture
Chellalate,Toute la ville,32.0,-6.0,,
Errachidia,Toute la ville,31.93055,-4.43588,,
Marrakech,Assif,31.6543389,-8.0056702,Marrakech-Safi,Marrakesh Prefecture
Marrakech,Massira 1,31.6342909,-8.067871,Marrakech-Safi,Marrakesh Prefecture
Casablanca,Al Fida,33.5649078,-7.5965827,,Prefecture of Casablanca
Meknès,Wislane,34.0424832,-5.0018799,Fez-Meknes,Fez Prefecture
Kénitra,El Ismailia,34.2722996,-6.6052215,,Kénitra Province
Taroudant,Akniss,30.47028,-8.87695,,
Mediouna,Toute la ville,33.45884,-7.51613,,
Inzegan,Toute la ville,32.0,-6.0,,
Oujda,Hay El Andalous,34.6632645,-1.887762,Oriental,Oujda-Angad Prefecture
Tanger,Jirrari,35.76727,-5.79975,,
Oujda,Hay Salam,34.6809672,-1.886455,Oriental,Oujda-Angad Prefecture
Ouled Teïma,Toute la ville,32.0,-6.0,,
Gzenaya Al Janoubia,Toute la ville,34.63338,-3.93015,,
Safi,Ourida 1 et 2,32.2455109,-9.2538864,Marrakech-Safi,Safi Province
Tanger,Mozart,35.7742449,-5.7979833,Tangier-Tetouan-Al Hoceima,Prefecture of Tangier - Assilah
Ait Melloul,Toute la ville,30.33729,-9.49783,,
Casablanca,Almaz,33.508014,-7.6852231,Casablanca-Settat,Nouaceur Province
Settat,Sidi Abdelkarim,32.9978257,-7.6064292,,Settat Province
Ben Guerir,Toute la ville,32.24232,-7.94627,,
Kénitra,Bir Rami Industriel,34.26101,-6.5802,,
Casablanca,Hay Almassira 2,33.58831,-7.61138,,
Casablanca,Palmier,33.5878823,-7.6156604,,Prefecture of Casablanca
Kénitra,Assam,34.2823932,-6.5388039,,Kénitra Province
Salé,Ghrablia,34.0531,-6.79846,,
Temara,Massira 1,33.9265542,-6.8999464,,Skhirat-Témara Prefecture
Fès,Ain Amiyer,34.03715,-4.9998,,
Temara,Skikina,33.9107361,-6.9322297,,Skhirat-Témara Prefecture
Oujda,Iris,34.6593936,-1.9168944,Oriental,Oujda-Angad Prefecture
Marrakech,Palmeraie,31.6747627,-7.982627,Marrakech-Safi,Marrakesh Prefecture
Tanger,Ziatene,35.76727,-5.79975,,
Chefchaouen,Toute la ville,35.0,-5.08333,,
Moulay Bouazza,Toute la ville,33.25646,-6.13193,,
Essaouira,Bhibah,31.7985496,-9.5824067,Marrakech-Safi,Essaouira Province
Casablanca,Route d'Azemmour,33.550654,-7.7375869,,Prefecture of Casablanca
Ouarzazate,Toute la ville,30.91894,-6.89341,,
Oujda,Sidi Yahya,34.6669072,-1.8632948,Oriental,Oujda-Angad Prefecture
Khénifra,Toute la ville,32.9391,-5.6686,,
Safi,El Matar,32.2686197,-9.2401931,Marrakech-Safi,Safi Province
Meknès,Berrima,33.89353,-5.5688505,Fez-Meknes,Meknès Prefecture
Tanger,El Majd,35.76727,-5.79975,,
Safi,Ijennane,32.3233218,-9.2324902,Marrakech-Safi,Safi Province
Casablanca,Mandarona,33.5325713,-7.6121917,,Prefecture of Casablanca
Rabat,Hay Riad,33.9641769,-6.8825009,,Rabat Prefecture
Ouazzane,Toute la ville,34.79711,-5.58224,,
Safi,Hay Sinaai,32.16667,-8.83333,,
Marrakech,Amerchich,31.6695899,-8.0044112,Marrakech-Safi,Marrakesh Prefecture
Sidi Yahya Zaer,Toute la ville,33.71045,-6.88308,,
Nador,Bouchouaf,35.1596641,-2.9340928,Oriental,Nador Province
Agadir,El Houda,30.3992428,-9.5374739,Souss-Massa,Agadir Ida-Outanane Prefecture
Oujda,Andalous,34.6598343,-1.8866257,Oriental,Oujda-Angad Prefecture
Temara,Nahda-1,33.92866,-6.90656,,
Safi,Hay Anas,32.2823611,-9.2372705,Marrakech-Safi,Safi Province
Agadir,Haut Anza,30.4550002,-9.6317217,Souss-Massa,Agadir Ida-Outanane Prefecture
Agadir,Tilila,30.3984274,-9.516003,Souss-Massa,Agadir Ida-Outanane Prefecture
Sidi Bennour,Toute la ville,32.65236,-8.42769,,
Essaouira,Essaouira El Jadida,31.5125,-9.77,,
Rabat,Médina de Rabat,34.0225651,-6.8380887,,Rabat Prefecture
Agadir,Haut-Founty,30.399291,-9.5784304,Souss-Massa,Agadir Ida-Outanane Prefecture
Casablanca,Ferme Bretone,33.58831,-7.61138,,
Lamharza Essahel,Toute la ville,33.39714,-8.06202,,
Tanger,Castilla,35.7665391,-5.8142583,Tangier-Tetouan-Al Hoceima,Prefecture of Tangier - Assilah
Agadir,Abattoirs,30.4135194,-9.5857661,Souss-Massa,Agadir Ida-Outanane Prefecture
Casablanca,Moulay Youssef,33.6023382,-7.6328871,Casablanca-Settat,Prefecture of Casablanca
Agadir,Hay Al Farah,30.401701,-9.5479748,Souss-Massa,Agadir Ida-Outanane Prefecture
Skhirat,Plage rose marae,33.84984,-7.04037,,
Mohammedia,Derb Lfath,33.68607,-7.38298,,
Benslimane,Lallamaryem,33.62018,-7.1246,,
Tanger,Gourziana,35.742325,-5.8127852,Tangier-Tetouan-Al Hoceima,Prefecture of Tangier - Assilah
Nador,Al aroui,35.010185,-3.012265,Oriental,Nador Province
Agadir,Founty,30.3945833,-9.5931204,Souss-Massa,Agadir Ida-Outanane Prefecture
El Hajeb,Toute la ville,33.72883,-5.46119,,
Mohammedia,Zone industrielle,33.6639918,-7.4091366,,Prefecture of Mohammédia
Salé,Hay Alqods,34.0531,-6.79846,,
Temara,Talaa,33.92866,-6.90656,,
Marrakech,Route d'Agadir - Essaouira,31.301278,-9.718806,Marrakech-Safi,Essaouira Province
Casablanca,Hay Sadri,33.570869,-7.5560964,,Prefecture of Casablanca
El Jadida,Najmat Al Janoub,33.237375,-8.5320799,,El Jadida Province
Rabat,Agdal,33.9983119,-6.8542908,,Rabat Prefecture
Agadir,Hay Qods,30.4333096,-9.570626,Souss-Massa,Agadir Ida-Outanane Prefecture
Casablanca,Hay Inara,33.537,-7.6,Casablanca-Settat,Prefecture of Casablanca
Marrakech,Azli,31.6234522,-8.0540472,Marrakech-Safi,Marrakesh Prefecture
Oujda,Route Jerada,34.6723321,-1.9339612,Oriental,Oujda-Angad Prefecture
Salé,Sakani,34.0531,-6.79846,,
Mdiq,Toute la ville,35.68571,-5.32507,,
Casablanca,Hay Almassira 3,33.58831,-7.61138,,
Tanger,M'nar,35.8165259,-5.7476463,Tangier-Tetouan-Al Hoceima,Prefecture of Tangier - Assilah
Imouzzer,Toute la ville,30.67401,-9.56236,,
Goulmima,Toute la ville,31.69227,-4.95256,,
Ouislane,Toute la ville,33.91194,-5.47796,,
Safi,Sidi Bouzid,32.3221135,-9.2552176,Marrakech-Safi,Safi Province
Agadir,Anoual Souss,30.4193807,-9.5636773,Souss-Massa,Agadir Ida-Outanane Prefecture
Agadir,Najah,30.4290681,-9.5761621,Souss-Massa,Agadir Ida-Outanane Prefecture
Kénitra,Mimosas,34.2568149,-6.5931964,,Kénitra Province
Marrakech,Akioud,31.653001,-8.0259174,Marrakech-Safi,Marrakesh Prefecture
Casablanca,Habous,33.5745744,-7.5970263,,Prefecture of Casablanca
Marrakech,Hay Massira,32.3103754,-9.2154349,Marrakech-Safi,Safi Province
Tanger,Tanger City Center,35.7723134,-5.7831992,Tangier-Tetouan-Al Hoceima,Prefecture of Tangier - Assilah
Tanger,Administratif,35.76727,-5.79975,,
Tahla,Toute la ville,34.0476,-4.42889,,
Tétouan,Msalla,35.5677072,-5.3676786,Tangier-Tetouan-Al Hoceima,Tetouan Province
Agadir,Tamraght,30.513951,-9.677378,Souss-Massa,Agadir Ida-Outanane Prefecture
Kénitra,Ouled M'Barek,34.26101,-6.5802,,
Youssoufia,Toute la ville,32.24634,-8.52941,,
Safi,Wad El Bacha,32.3091149,-9.235227,Marrakech-Safi,Safi Province
Salé,Omar,34.0692893,-6.8014826,,Prefecture of Salé
Temara,Fadli,33.92866,-6.90656,,
Tétouan,Taboula,35.5685697,-5.4013725,Tangier-Tetouan-Al Hoceima,Tetouan Province
Tanger,Marchane,35.76727,-5.79975,,
Tétouan,Wilaya,35.5889144,-5.3393867,Tangier-Tetouan-Al Hoceima,Tetouan Province
Essaouira,Bab Doukkala,31.5161315,-9.7658499,Marrakech-Safi,Essaouira Province
Marrakech,Majorelle,31.6414769,-8.0028984,Marrakech-Safi,Marrakesh Prefecture
Nador,Ouled boutaib,35.16813,-2.93352,,
Ain Cheggag,Toute la ville,33.89286,-5.03699,,
Tan-Tan,Tan Tan,28.437553,-11.098664,Guelmim-Oued Noun,Tan-Tan Province
Skhirat,Al fath,33.9000669,-6.9340574,,Skhirat-Témara Prefecture
Meknès,Sbata,33.8807662,-5.5668732,Fez-Meknes,Meknès Prefecture
Nador,Hay el matar,35.16813,-2.93352,,
Marrakech,Hôpital Militaire,31.6336445,-8.0205367,Marrakech-Safi,Marrakesh Prefecture
Kénitra,La Base,34.274945,-6.6118366,,Kénitra Province
Casablanca,Hay Alfalah,33.58831,-7.61138,,
Tanger,Souani,35.7690944,-5.8185809,Tangier-Tetouan-Al Hoceima,Prefecture of Tangier - Assilah
Casablanca,Val d'Anfa,33.5916117,-7.6538682,Casablanca-Settat,Prefecture of Casablanca
Nador,Ouled Lahcen,35.16813,-2.93352,,
Mohammedia,Corniche,33.7036033,-7.3866409,,Prefecture of Mohammédia
Agadir,Riad Salam,30.4096973,-9.5762705,Souss-Massa,Agadir Ida-Outanane Prefecture
Skhirat,Ain el Hayat,33.84984,-7.04037,,
Rabat,Taqaddoum,34.01325,-6.83255,,
Salé,Hay Inbiat,34.0579401,-6.778135,,Prefecture of Salé
Agadir,Av Mokawama,30.42018,-9.59815,,
Tétouan,Kouilma,35.5623742,-5.3495173,Tangier-Tetouan-Al Hoceima,Tetouan Province
Agadir,Taddart Anza,30.4629302,-9.6374425,Souss-Massa,Agadir Ida-Outanane Prefecture
Tétouan,Slaoui,35.5740295,-5.3618636,Tangier-Tetouan-Al Hoceima,Tetouan Province
Mohammedia,Al Qods,33.6982691,-7.3686958,,Prefecture of Mohammédia
Casablanca,Hay Laymouna,33.58831,-7.61138,,
Marrakech,Sidi Youssef Ben Ali,31.6090052,-7.9679007,Marrakech-Safi,Marrakesh Prefecture
Agadir,Hay Zaytoun,30.42018,-9.59815,,
Chichaoua,Toute la ville,31.26365,-8.84411,,
Marrakech,Bin Lkchali,31.63416,-7.99994,,
Fès,Mont Fleuri 2,34.0164884,-4.9900381,Fez-Meknes,Fez Prefecture
Tamazouzte,Toute la ville,31.49976,-7.78466,,
Salé,Hay Chmaou,34.0665274,-6.8007033,,Prefecture of Salé
Fès,Dar Mehrez,34.03715,-4.9998,,
Agadir,Hay Al Wafaa,30.42018,-9.59815,,
Azilal,Toute la ville,31.96419,-6.57429,,
Dakhla,Toute la ville,30.41071,-9.55572,,
Casablanca,Hay Hana,33.5773715,-7.665022,Casablanca-Settat,Prefecture of Casablanca
Fès,Dher Lkhmiss,34.03715,-4.9998,,
Tanger,Beni Said,35.4617792,-5.2253684,Tangier-Tetouan-Al Hoceima,Tetouan Province
Bouznika,Quartier Industriel,33.78942,-7.15968,,
Benslimane,Al Filline,33.62018,-7.1246,,
Bouskoura,Ville verte,33.493491,-7.6026241,,Nouaceur Province
Marrakech,Route de Tahanaoute,31.35262,-7.95036,,
Kasba Tadla,Toute la ville,32.5977,-6.26844,,
Marrakech,Hay Targa,31.6349018,-8.0516982,Marrakech-Safi,Marrakesh Prefecture
Agourai,Toute la ville,33.63883,-5.59183,,
Tanger,Moulay Youssef,35.7709976,-5.8122843,Tangier-Tetouan-Al Hoceima,Prefecture of Tangier - Assilah
Casablanca,Hay Moulay Rachid 2,33.5659199,-7.5682724,,Prefecture of Casablanca
Ain Harrouda,Toute la ville,33.63737,-7.44971,,
Kénitra,Seyad,34.26101,-6.5802,,
Tanger,Zouitina,35.732901,-5.8116348,Tangier-Tetouan-Al Hoceima,Prefecture of Tangier - Assilah
Agadir,Al Wifaq,30.3929571,-9.5637186,Souss-Massa,Agadir Ida-Outanane Prefecture
Agadir,Anza,30.4520064,-9.6590808,Souss-Massa,Agadir Ida-Outanane Prefecture
Temara,Massira,33.9295043,-6.9020593,,Skhirat-Témara Prefecture
Safi,El Massira,32.3003091,-9.2295413,Marrakech-Safi,Safi Province
Tamensourt,Toute la ville,32.0,-6.0,,
Marrakech,Semlalia,31.6450736,-8.0141052,Marrakech-Safi,Marrakesh Prefecture
Sidi Hajjaj Oued Hassar,Toute la ville,33.62647,-7.40639,,
Casablanca,Riviera,33.5621584,-7.6407346,,Prefecture of Casablanca
Tan-Tan,Toute la ville,28.08333,-11.08333,,
Temara,Comatrav,33.92866,-6.90656,,
Dir El Ksiba,Toute la ville,32.57616,-6.03717,,
Casablanca,Ben Ejdia,33.58831,-7.61138,,
Tanger,Beausejour,35.76727,-5.79975,,
Sidi Bouknadel,Toute la ville,34.17659,-6.6893,,
Zaïo,Toute la ville,34.94282,-2.7329,,
Marrakech,Massira,31.6280174,-8.0764649,Marrakech-Safi,Marrakesh Prefecture
Marrakech,Hay Al Massar,31.6741233,-8.0311389,Marrakech-Safi,Marrakesh Prefecture
Temara,Val d'or,33.9014042,-6.9956802,,Skhirat-Témara Prefecture
Tanger,Aviation,35.76727,-5.79975,,
Safi,Saâida 1 et 2,32.16667,-8.83333,,
Marrakech,Oued Tensift,31.63416,-7.99994,,
Oujda,Nour,34.6737834,-1.9423498,Oriental,Oujda-Angad Prefecture
Lqliaa,Toute la ville,30.31375,-9.52151,,
Taourirt,Toute la ville,34.40731,-2.89732,,
Salé,Roustal,34.0531,-6.79846,,
Cap de l'eau,Toute la ville,35.14577,-2.4262,,
El Jadida,Corniche,33.2510341,-8.53247,,El Jadida Province
Settat,Hay Al Kamal,33.0040261,-7.637797,,Settat Province
Fès,Fès Médina,34.0631192,-4.9737999,Fez-Meknes,Fez Prefecture
Tétouan,Route de Ceuta,35.57845,-5.36837,,
Tanger,El Baraka,35.1737906,-3.865841,Tangier-Tetouan-Al Hoceima,Al Hoceima Province
Mohammedia,Hay saada,33.68607,-7.38298,,
Rabat,Riyad,33.9520504,-6.8844164,,Rabat Prefecture
Safi,Miftah el kheir,32.3162311,-9.2308026,Marrakech-Safi,Safi Province
Salé,Annaim,34.0629807,-6.8053389,,Prefecture of Salé
Fdalate,Toute la ville,33.59119,-7.27928,,
Safi,Hay essalam,32.16667,-8.83333,,
Oued Zem,Toute la ville,32.8627,-6.57359,,
Tanger,Moujahidine,35.7712561,-5.8442361,Tangier-Tetouan-Al Hoceima,Prefecture of Tangier - Assilah
Marrakech,Ancienne Médina,32.2988678,-9.2406558,Marrakech-Safi,Safi Province
Casablanca,Laimoune,33.58831,-7.61138,,
Tanger,Du Golf,35.76727,-5.79975,,
Agadir,Anahda,30.42018,-9.59815,,
Tétouan,Mhannech,35.5646246,-5.3569392,Tangier-Tetouan-Al Hoceima,Tetouan Province
El Jadida,Mouilha,33.2513426,-8.5196341,,El Jadida Province
Salé,El Qaria,34.0531,-6.79846,,
Marrakech,Amelkis,31.6119434,-7.945602,Marrakech-Safi,Marrakesh Prefecture
Tanger,Casabarata,35.7646237,-5.823807,Tangier-Tetouan-Al Hoceima,Prefecture of Tangier - Assilah
Fès,Dar Dbibagh,34.0295238,-4.9948257,Fez-Meknes,Fez Prefecture
Safi,Ville Nouvelle,31.5106032,-9.7579112,Marrakech-Safi,Essaouira Province
Moulay Driss Zerhoun,Toute la ville,34.05594,-5.51832,,
Kénitra,Bir Rami Est,34.2461009,-6.6016561,,Kénitra Province
Temara,Abi Horaira,33.92866,-6.90656,,
Marrakech,Bab Doukkala,31.632227,-7.9970272,Marrakech-Safi,Marrakesh Prefecture
Mohammedia,Riad 2,33.68607,-7.38298,,
Tanger,Hay El Boughaz,35.76727,-5.79975,,
Fès,Hay Hassani,34.0209771,-4.9744947,Fez-Meknes,Fez Prefecture
Agadir,Talborjt,30.4237254,-9.5905693,Souss-Massa,Agadir Ida-Outanane Prefecture
Béni Yakhlef,Toute la ville,32.0,-6.0,,
Dcheïra El Jihadia,Toute la ville,32.0,-6.0,,
Temara,Al Moustakbal,33.92866,-6.90656,,
El Jadida,Lalla Zahra,33.2535343,-8.5142019,,El Jadida Province
El Guerdane,Toute la ville,32.0,-6.0,,
Casablanca,Oasis,33.244469,-8.4906418,,El Jadida Province
Benslimane,Les chenes,33.6493961,-7.0821238,,Benslimane Province
Fès,Ain Haroun,34.066531,-5.0073181,Fez-Meknes,Fez Prefecture
Rabat,Diour Jamaa,34.0135783,-6.8467906,,Rabat Prefecture
Rommani,Toute la ville,33.52838,-6.60348,,
Kénitra,Ain Sebaa,34.2296268,-6.528318,,Kénitra Province
Meknès,Ville Nouvelle,34.0343137,-4.9980042,Fez-Meknes,Fez Prefecture
Tanger,Hay Al Bassatine,35.76727,-5.79975,,
Bouznika,Al Kawtar,33.78942,-7.15968,,
Skhirat,Imarat,33.84984,-7.04037,,
Fès,Aaouinat Hajjaj,34.03715,-4.9998,,
Safi,Plateau,32.2934807,-9.2353286,Marrakech-Safi,Safi Province
Tanger,Msala,35.1700864,-5.2653423,Tangier-Tetouan-Al Hoceima,Chefchaouen Province
Tanger,Girari,35.76727,-5.79975,,
Tanger,manar,35.75959,-5.8495551,Tangier-Tetouan-Al Hoceima,Prefecture of Tangier - Assilah
Oujda,Nahda,34.6797686,-1.9500751,Oriental,Oujda-Angad Prefecture
Temara,Hoda,33.92866,-6.90656,,
Meknès,Nouveau Mellah,32.16667,-4.8,,
Safi,Zawiyat Sidi Wassel,32.16667,-8.83333,,
Mohammedia,La Colline,33.6950989,-7.372396,,Prefecture of Mohammédia
Oujda,Hay Ennasr,34.7112994,-1.8916126,Oriental,Oujda-Angad Prefecture
Kénitra,Taïbia,34.275246,-6.5974252,,Kénitra Province
Oujda,Riad isli,34.68053,-1.90764,,
Fès,Boutaaa,34.03715,-4.9998,,
Fès,Route d'Aeroport,34.03715,-4.9998,,
Tameslohte,Toute la ville,31.4562,-8.05316,,
Casablanca,Hay Al Amal,33.5676008,-7.5907597,,Prefecture of Casablanca
Sidi Moussa Ben Ali,Toute la ville,33.56188,-7.35924,,
Fès,Talaa,34.0636758,-4.9812831,Fez-Meknes,Fez Prefecture
Rabat,Les Orangers,34.0182214,-6.8395747,,Rabat Prefecture
Casablanca,Hermitage,33.5666079,-7.6209496,,Prefecture of Casablanca
Dcheira,Toute la ville,26.97639,-12.61965,,
Marrakech,Sidi Ghanem,31.684715,-8.0616679,Marrakech-Safi,Marrakesh Prefecture
Ifrane,Atlas,33.5286207,-5.1095867,Fez-Meknes,Ifrane Province
Agadir,Taddart,30.4583937,-9.6478334,Souss-Massa,Agadir Ida-Outanane Prefecture
Marrakech,Route de Safi,31.5280522,-9.6890348,Marrakech-Safi,Essaouira Province
Essaouira,Arrière Pays,31.5125,-9.77,,
Dar Ould Zidouh,Toute la ville,32.31247,-6.90494,,
Safi,Jnane Illane,32.16667,-8.83333,,
Imouzzer Marmoucha,Toute la ville,33.47024,-4.29571,,
Tétouan,Touilaa,35.588024,-5.3505876,Tangier-Tetouan-Al Hoceima,Tetouan Province
Meknès,Bele Vue,32.16667,-4.8,,
Marrakech,Masmoudi,31.6527663,-8.0547755,Marrakech-Safi,Marrakesh Prefecture
Tétouan,Ichara,35.5779548,-5.3798608,Tangier-Tetouan-Al Hoceima,Tetouan Province
Tanger,Beni Touzine,35.76727,-5.79975,,
Essaouira,Raounak,31.5125,-9.77,,
Méchouar Fès Jdid,Toute la ville,34.05466,-5.00725,,
Tanger,Bir El Ghazi,35.7148101,-5.8099652,Tangier-Tetouan-Al Hoceima,Prefecture of Tangier - Assilah
Fès,Batha,34.0604457,-4.9827382,Fez-Meknes,Fez Prefecture
Nador,Ouled brahim,35.1664786,-2.9310188,Oriental,Nador Province
Tanger,Hanaa 2,35.76727,-5.79975,,
Marrakech,Massira 3,31.6441587,-8.065229,Marrakech-Safi,Marrakesh Prefecture
Imlil,Toute la ville,31.76727,-7.01078,,
Kénitra,Bab Fès,34.2693265,-6.5621896,,Kénitra Province
Tanger,Iberie,35.76727,-5.79975,,
Tanger,Bir Chifa,35.7432048,-5.8277392,Tangier-Tetouan-Al Hoceima,Prefecture of Tangier - Assilah
Souk El Arbaa,Toute la ville,34.68252,-5.99819,,
Fès,Jnan El ward,34.0575729,-4.9573848,Fez-Meknes,Fez Prefecture
Outat El Haj,Toute la ville,33.34443,-3.70318,,
Oued Jdida,Toute la ville,33.93874,-5.38808,,
Zenata,Toute la ville,34.51352,-5.42391,,
Temara,Oued Eddahab,33.92866,-6.90656,,
Marrakech,Rahba Kedima,31.6288161,-7.9870485,Marrakech-Safi,Marrakesh Prefecture
Ouled Frej,Toute la ville,32.0,-6.0,,
Essaouira,Route d'Agadir,31.301278,-9.718806,Marrakech-Safi,Essaouira Province
Fès,Ancienne Médina,34.03715,-4.9998,,
Agadir,Suisse,30.4278023,-9.5976738,Souss-Massa,Agadir Ida-Outanane Prefecture
Rabat,Guich Oudaya,33.9368917,-6.8870616,,Skhirat-Témara Prefecture
El Jadida,Hay Al Amal,33.2388933,-8.5253707,,El Jadida Province
Boujdour,Toute la ville,25.66172,-13.68419,,
Kénitra,El Menzah,34.26101,-6.5802,,
Tanger,Al Kasaba,35.1688367,-5.2613535,Tangier-Tetouan-Al Hoceima,Chefchaouen Province
Foum Jemaa,Toute la ville,31.97723,-7.00181,,
Aït Iaaza,Toute la ville,32.0,-6.0,,
El Jadida,Derb Ghalef,32.9,-8.5,,
Tanger,El Mers 1,35.76727,-5.79975,,
Essaouira,Lahrarta,31.5125,-9.77,,
Agadir,Sonaba,30.3996557,-9.5878933,Souss-Massa,Agadir Ida-Outanane Prefecture
Kénitra,Al Baladya,34.26101,-6.5802,,
Kénitra,Val Fleury,34.2697309,-6.5970377,,Kénitra Province
Agadir,Marina,30.4203196,-9.6033212,Souss-Massa,Agadir Ida-Outanane Prefecture
Skhirat,Ain Errouz,33.84984,-7.04037,,
Agadir,Hay Najah,30.42018,-9.59815,,
El Menzeh,Toute la ville,33.89628,-5.54328,,
Casablanca,El Manar El Hank,33.5899181,-7.6401483,Casablanca-Settat,Prefecture of Casablanca
Oujda,Bd Allal el fassi,34.68053,-1.90764,,
Fès,Lyrac,34.03715,-4.9998,,
Ben Ahmed,Toute la ville,33.07141,-7.24358,,
Tanger,Al Warda,35.76727,-5.79975,,
Oujda,Najd,34.6581898,-1.8723508,Oriental,Oujda-Angad Prefecture
Amizmiz,Toute la ville,31.21673,-8.23184,,
Temara,Nemsia,33.92866,-6.90656,,
Casablanca,Bachkou,33.5570776,-7.6274253,,Prefecture of Casablanca
Marrakech,Hay Annahda,31.63416,-7.99994,,
Salé,Hay Moulay Ismail,34.0349806,-6.7862749,,Prefecture of Salé
Dakhla,Al Massira,32.8870102,-6.8994165,Béni Mellal-Khénifra,Khouribga Province
El Jadida,Jawhara,33.2294201,-8.4907339,,El Jadida Province
Agadir,Extension Dakhla,30.4063538,-9.5452951,Souss-Massa,Agadir Ida-Outanane Prefecture
Salé,Bab Al Bahr,34.0531,-6.79846,,
El Jadida,Amal,33.2333946,-8.4932505,,El Jadida Province
Marrakech,Bab Aylan,31.6302876,-7.9731428,Marrakech-Safi,Marrakesh Prefecture
Settat,Hay Mabrouka,32.9974165,-7.6152106,,Settat Province
Skhinate,Toute la ville,34.02795,-4.864,,
Allyene,Toute la ville,35.73491,-5.39539,,
Tanger,Branes Kdima,35.7470171,-5.8673859,Tangier-Tetouan-Al Hoceima,Prefecture of Tangier - Assilah
Bouznika,Hamza,33.78942,-7.15968,,
Temara,Nahda-2,33.92866,-6.90656,,
Salé,Dar El Lhamra,34.0531,-6.79846,,
Sidi Abdallah El Bouchouari,Toute la ville,32.0,-6.0,,
Essaouira,Centre ville,31.5125,-9.77,,
Fès,Saies,34.03715,-4.9998,,
Tanger,Jbel Kbir,35.76727,-5.79975,,
Ouaouizeght,Toute la ville,32.18115,-6.33912,,
Fès,Fes Jdid,34.0559324,-4.9908304,Fez-Meknes,Fez Prefecture
Safi,Hay Oued El Bacha,32.3176696,-9.2227357,Marrakech-Safi,Safi Province
Tétouan,Touabel,35.5806121,-5.345647,Tangier-Tetouan-Al Hoceima,Tetouan Province
Benslimane,Quods,33.62018,-7.1246,,
Kénitra,La Cité,34.26101,-6.5802,,
Kénitra,Bir Rami Ouest,34.26101,-6.5802,,
Agadir,Le bord de mer,30.42018,-9.59815,,
Tétouan,Al Azhar,35.5935599,-5.3437623,Tangier-Tetouan-Al Hoceima,Tetouan Province
Oujda,Jawhara,34.6690093,-1.9321003,Oriental,Oujda-Angad Prefecture
Bejaad,Toute la ville,32.77296,-6.39125,,
Mohammedia,Hay Al Wahda,33.68607,-7.38298,,
Mohammedia,Rachidia,33.6863024,-7.3816424,,Prefecture of Mohammédia
Lagfifat,Toute la ville,30.30803,-9.25653,,
Casablanca,Florida,33.5816926,-7.5629907,,Prefecture of Casablanca
Kénitra,Quartier Nahda,34.2586932,-6.5542431,,Kénitra Province
Fès,Ain kadous,34.0611556,-5.0088173,Fez-Meknes,Fez Prefecture
Ouled Ayad,Toute la ville,32.49412,-6.86103,,
Meknès,Kasbat,32.16667,-4.8,,
Temara,Andalousse,33.92866,-6.90656,,
Nador,Centre Ville,35.16813,-2.93352,,
Tétouan,Inara,35.5790837,-5.3344173,Tangier-Tetouan-Al Hoceima,Tetouan Province
Safi,Bahia,31.6216327,-7.9819376,Marrakech-Safi,Marrakesh Prefecture
Moulay Abdallah,Toute la ville,33.19664,-8.58811,,
Oujda,Hikma I,34.6474156,-1.9079968,Oriental,Oujda-Angad Prefecture
Tanger,Sania,35.7787383,-5.7551633,Tangier-Tetouan-Al Hoceima,Prefecture of Tangier - Assilah
Ait Ourir,Toute la ville,31.5642,-7.67037,,
Fès,Hay Mohammedi,34.03715,-4.9998,,
Tétouan,Saniat Rmal,35.57845,-5.36837,,
Casablanca,Alsace Lorraine,33.5881538,-7.6125987,,Prefecture of Casablanca
Kalaat M'gouna,Toute la ville,31.24077,-6.12823,,
El Jadida,Plateau,33.247289,-8.508932,,El Jadida Province
Sidi Bibi,Toute la ville,30.22348,-9.54092,,
Al Oioun Sidi Mellouk,Toute la ville,32.0,-6.0,,
Settat,Hay salam,32.9991058,-7.6335427,,Settat Province
Taroudant,Lablalia,30.47028,-8.87695,,
Boufkrane,Toute la ville,32.0,-6.0,,
Casablanca,Triangle d'Or,33.590265,-7.640054,Casablanca-Settat,Prefecture of Casablanca
El Jadida,Derb Sid Daoui,32.9,-8.5,,
Tétouan,Ziana,35.5754878,-5.3633656,Tangier-Tetouan-Al Hoceima,Tetouan Province
Marrakech,Sidi Mansour,32.4501379,-8.0801305,Marrakech-Safi,Rhamna Province
Kénitra,Village,34.26101,-6.5802,,
Mohammedia,Les Cretes,33.6884075,-7.395669,,Prefecture of Mohammédia
Guelmim,Toute la ville,28.75,-10.0,,
Temara,Wufac Erac,33.92866,-6.90656,,
Agadir,Amsernate,30.4152918,-9.5754482,Souss-Massa,Agadir Ida-Outanane Prefecture
Marrakech,Hay Al Hassani,31.6326621,-8.0451164,Marrakech-Safi,Marrakesh Prefecture
Gueznaia,Toute la ville,35.7066,-5.90881,,
Imzouren,Toute la ville,35.1493,-3.84855,,
Marrakech,Ksibat Nhas,31.63416,-7.99994,,
Sidi Taibi,Toute la ville,34.19545,-6.63286,,
Fès,Sidi Brahim,34.0266576,-4.9877331,Fez-Meknes,Fez Prefecture
Safi,Jnane Colonne 1 et 2,32.16667,-8.83333,,
Mechra Bel Ksiri,Toute la ville,34.57874,-5.96304,,
Mohammedia,Hay Al Amal,33.68607,-7.38298,,
Mohammedia,Amal,33.6618355,-7.4377611,,Prefecture of Mohammédia
Jemaa Shaim,Toute la ville,32.34738,-8.84192,,
Casablanca,Hay Moulay Rachid 4,33.5659199,-7.5682724,,Prefecture of Casablanca
Marrakech,Sakar,31.659438,-8.0003914,Marrakech-Safi,Marrakesh Prefecture
Biougra,Toute la ville,30.21339,-9.36849,,
El Gara,Toute la ville,35.02652,-5.75145,,
Tétouan,Medina,35.5710625,-5.3664659,Tangier-Tetouan-Al Hoceima,Tetouan Province
Fès,Sehrij Gnawa,34.03715,-4.9998,,
Rabat,Les Ambassadeurs,34.01325,-6.83255,,
Mohammedia,Derb Marrakech,33.6882409,-7.3935073,,Prefecture of Mohammédia
Fès,Hay Palestine,34.03715,-4.9998,,
Safi,Jerifat,32.16667,-8.83333,,
Marrakech,Ain Mezouar,31.6271872,-8.036616,Marrakech-Safi,Marrakesh Prefecture
Mohammedia,Hassania 1,33.685229,-7.3792832,,Prefecture of Mohammédia
Zaouïat Cheikh,Toute la ville,32.66801,-7.91383,,
Bab Taza,Toute la ville,35.03169,-5.26656,,
Marrakech,Bab El Khemis,31.6391004,-7.9858434,Marrakech-Safi,Marrakesh Prefecture
Jrada,Toute la ville,32.0,-6.0,,
Tanger,Drissia,35.7622996,-5.8034792,Tangier-Tetouan-Al Hoceima,Prefecture of Tangier - Assilah
Moulay Bouzarqtoune,Toute la ville,31.66703,-9.63678,,
Mohammedia,Hay Al Horria,33.68607,-7.38298,,
Zemamra,Toute la ville,32.62181,-8.7053,,
Marrakech,Sidi Abdellah Ghiat,31.5106075,-7.8332957,Marrakech-Safi,Al Haouz Province
Settat,Alouane,33.009776,-7.605038,,Settat Province
Rabat,Hay Al Farah,34.01325,-6.83255,,
Kénitra,El Assam,34.26101,-6.5802,,
Salé,Mkinssia,34.0531,-6.79846,,
Daoura,Toute la ville,27.46033,-12.85308,,
Agadir Melloul,Toute la ville,30.22492,-7.79601,,
Marrakech,Victor Hugo,31.6414423,-8.0233207,Marrakech-Safi,Marrakesh Prefecture
Casablanca,Franceville,33.562076,-7.6336726,Casablanca-Settat,Prefecture of Casablanca
Essaouira,Ahl Agadir,31.512899,-9.7679781,Marrakech-Safi,Essaouira Province
Tanger,Ennasr,35.76727,-5.79975,,
Salé,Dyour Nejjar,34.0531,-6.79846,,
Tanger,Hay Zaoudia,35.76727,-5.79975,,
Tanger,Zone Industrielle Mghogha,35.7418519,-5.7818354,Tangier-Tetouan-Al Hoceima,Prefecture of Tangier - Assilah
Tanger,Hanaa 3 - Soussi,35.76727,-5.79975,,
Settat,Smaâla,32.9994622,-7.6224239,,Settat Province
Temara,Masrou 1,33.92866,-6.90656,,
Ksar es-Seghir,Toute la ville,32.0,-6.0,,
Essaouira,Ghazoua,31.4498205,-9.7330621,Marrakech-Safi,Essaouira Province
Tanger,Bel Air - Val fleuri,35.76727,-5.79975,,
Rabat,Hay el Fath,33.8362822,-7.0602105,,Skhirat-Témara Prefecture
Foum Oudi,Toute la ville,32.25316,-6.37357,,
El Jadida,Cité Des Cadres - Saniat Al Mourakib,32.9,-8.5,,
Aourir,Toute la ville,30.52521,-9.61163,,
Tétouan,Tamouda,35.5590502,-5.4124284,Tangier-Tetouan-Al Hoceima,Tetouan Province
Kénitra,Mellah,34.2649142,-6.5726682,,Kénitra Province
Temara,Fath el Kheir,33.9065982,-6.9207022,,Skhirat-Témara Prefecture
Agadir,Laazib,30.4149663,-9.5736381,Souss-Massa,Agadir Ida-Outanane Prefecture
Rissani,Toute la ville,31.28464,-4.26883,,
Tahannaout,Toute la ville,31.38006,-7.94203,,
Marrakech,Sidi Abbad,31.654225,-8.0162102,Marrakech-Safi,Marrakesh Prefecture
Marrakech,El Moukef,31.6345494,-7.9817807,Marrakech-Safi,Marrakesh Prefecture
Karia Ba Mohamed,Toute la ville,34.37094,-5.2138,,
Benslimane,Jradi,33.62018,-7.1246,,
Mohammedia,Yassmine,33.68607,-7.38298,,
Tikiouine,Toute la ville,30.71348,-9.72651,,
Tanger,El Mers 2,35.76727,-5.79975,,
Safi,Bled Eljed,32.16667,-8.83333,,
Casablanca,Zone Industrielle Moulay Rachid,33.58192,-7.50489,,
Nador,Al Boustane,35.1376292,-2.9271902,Oriental,Nador Province
Souk Sebt Ouled Nemma,Toute la ville,32.0,-6.0,,
Sidi Hajjaj,Toute la ville,32.92864,-7.32135,,
Sidi Yahya,Toute la ville,34.79911,-2.60259,,
Fès,Hay Fadela,34.03715,-4.9998,,
Rabat,El Youssoufia,33.9845243,-6.8203304,,Rabat Prefecture
Tanger,Mister Khouch,35.7738241,-5.8327767,Tangier-Tetouan-Al Hoceima,Prefecture of Tangier - Assilah
Temsia,Toute la ville,30.34023,-9.4043,,
Salé,Al Bassatine,34.0715481,-6.7857713,,Prefecture of Salé
Mohammedia,Hay Salam,33.68607,-7.38298,,
Nador,Laarassi,35.1655401,-2.9256544,Oriental,Nador Province
Meknès,El Mechouar Stinia,32.16667,-4.8,,
Tanger,Charf,35.7718355,-5.7932623,Tangier-Tetouan-Al Hoceima,Prefecture of Tangier - Assilah
Salé,Horria,34.0531,-6.79846,,
Timoulilt,Toute la ville,32.20368,-6.4666,,
Agadir,Lekhiam,30.42018,-9.59815,,
Oujda,Bd Derfoufi,34.6864884,-1.9162586,Oriental,Oujda-Angad Prefecture
Oujda,El firdaws,34.68053,-1.90764,,
Nador,Bouarourou,35.1587919,-2.9112456,Oriental,Nador Province
Benslimane,Administratif,33.62018,-7.1246,,
Casablanca,Hay Almassira 1,33.58831,-7.61138,,
Bousselham,Toute la ville,32.0,-6.0,,
Moulay Bousselham,Toute la ville,34.88256,-6.20272,,
Salé,Ouled Moussa,34.0502199,-6.7751815,,Prefecture of Salé
Nador,Laari cheikh,35.173,-2.926,Oriental,Nador Province
Marrakech,Assouel,31.636103,-7.9880496,Marrakech-Safi,Marrakesh Prefecture
Temara,Temara Plage,33.92866,-6.90656,,
Bradia,Toute la ville,32.42751,-6.50329,,
Taroudant,Maihta,30.47028,-8.87695,,
El Jadida,Biranzarane,32.9,-8.5,,
Bin El Ouidane,Toute la ville,32.11539,-6.47175,,
Safi,LABC,32.16667,-8.83333,,
Essaouira,Idaougard,31.5125,-9.77,,
El Jadida,Narjiss,33.2503283,-8.5255192,,El Jadida Province
Agadir,Les Amicales,30.4313666,-9.5791672,Souss-Massa,Agadir Ida-Outanane Prefecture
Tanger,M'sallah,35.7743237,-5.8175644,Tangier-Tetouan-Al Hoceima,Prefecture of Tangier - Assilah
Tinghir,Toute la ville,31.51472,-5.53278,,
Sabaa Aiyoun,Toute la ville,33.89689,-5.36109,,
Tétouan,El Mdrassi,35.57845,-5.36837,,
Agadir,Le centre-ville,30.42018,-9.59815,,
Imintanoute,Toute la ville,31.17876,-8.84422,,
Ain Johra,Toute la ville,34.1,-6.35,,
Casablanca,Marina,33.6059185,-7.6207842,,Prefecture of Casablanca
Ait Amira,Toute la ville,30.15709,-9.46806,,
Tanger,El Mrabet,35.4143684,-5.3844659,Tangier-Tetouan-Al Hoceima,Tetouan Province
Settat,Hay Kilz,33.0020243,-7.6312335,,Settat Province
Casablanca,Sour Jdid,33.6028391,-7.6293301,,Prefecture of Casablanca
Tanger,Draoua,35.76727,-5.79975,,
Laattaouia,Toute la ville,31.83882,-7.33318,,
Sidi Aissa Ben Ali,Toute la ville,32.35165,-6.64399,,
Safi,Karyat ech-chams,32.16667,-8.83333,,
Massa,Toute la ville,29.96069,-9.65881,,
Tanger,Ahammar,35.7485343,-5.8802819,Tangier-Tetouan-Al Hoceima,Prefecture of Tangier - Assilah
Marrakech,Massar,31.6741233,-8.0311389,Marrakech-Safi,Marrakesh Prefecture
Er-Rich,Toute la ville,32.25935,-4.49912,,
Safi,Safi 1,32.2886467,-9.2294546,Marrakech-Safi,Safi Province
Tétouan,Al Mallalienne,35.6263117,-5.3415171,Tangier-Tetouan-Al Hoceima,Tetouan Province
Settat,Hay Mimouna,33.0050664,-7.6279648,,Settat Province
Jorf,Toute la ville,31.49442,-4.40598,,
Marrakech,Sofia,31.6239257,-7.987848,Marrakech-Safi,Marrakesh Prefecture
Benslimane,Quartier Soufal,33.62018,-7.1246,,
Marrakech,Iziki,31.6277049,-8.0576799,Marrakech-Safi,Marrakesh Prefecture
Rabat,Haut Agdal,33.9935961,-6.8587625,,Rabat Prefecture
Marrakech,Route de Lalla Takerkoust,31.36254,-8.13578,,
Sidi Moussa El Majdoub,Toute la ville,32.0,-6.0,,
Agadir,Arghoud,30.42018,-9.59815,,
Tnine Aglou,Toute la ville,29.76489,-9.80742,,
Oulad Frej,Toute la ville,32.95956,-8.2274,,
Ourika,Toute la ville,31.33776,-7.76741,,
Agadir,Ville Nouvelle,31.5141959,-9.7724003,Marrakech-Safi,Essaouira Province
Casablanca,Hay Moulay Rachid 3,33.5464923,-7.5532047,,Prefecture of Casablanca
Sidi Yahya El Gharb,Toute la Ville,34.30745,-6.30196,,
Lamaachate,Toute la ville,32.00804,-9.35155,,
Tanger,Californie,35.76727,-5.79975,,
Arbaa Sahel,Toute la ville,29.61394,-9.92787,,
Es-Semara,Toute la ville,27.75,-11.0,,
Oujda,Bd Hassan II,34.6666476,-1.8645009,Oriental,Oujda-Angad Prefecture
Marrakech,Ben Saleh,31.6303271,-7.9825949,Marrakech-Safi,Marrakesh Prefecture
Essaouira,Route de Marrakech,31.5173907,-9.6476591,Marrakech-Safi,Essaouira Province
Zoumi,Toute la ville,34.80321,-5.34458,,
Oujda,Hay El Hikma,34.6493069,-1.9112145,Oriental,Oujda-Angad Prefecture
Essaouira,Douar Laarab,31.5017935,-9.6992597,Marrakech-Safi,Essaouira Province
Kénitra,Bir Anzarane,33.9767306,-6.8866791,,Rabat Prefecture
Meknassa Acharqia,Toute la ville,34.36262,-3.93471,,
Ait Baha,Toute la ville,30.07121,-9.15775,,
Aquouass Briech,Toute la ville,35.55422,-5.95759,,
El Jadida,Ezzohor,32.9,-8.5,,
Mohammedia,Belle Vue,33.68607,-7.38298,,
El Jadida,Hay Riad,32.9,-8.5,,
Tanger,Bouhout 2,35.7566828,-5.7923249,Tangier-Tetouan-Al Hoceima,Prefecture of Tangier - Assilah
Settat,Tanmiya,33.00103,-7.61662,,
Essaouira,Toute la ville,31.5125,-9.77,,
Tanger,Marchan,35.7902362,-5.8284746,Tangier-Tetouan-Al Hoceima,Prefecture of Tangier - Assilah
Fès,Belkhiat,34.03715,-4.9998,,
Taroudant,Kasbah,30.473522,-8.8722935,Souss-Massa,Taroudant Province
Nador,Barakia,35.16813,-2.93352,,
Oujda,Ancienne medina,34.68053,-1.90764,,
Oued Amlil,Toute la ville,34.2,-4.28,,
Fès,Quartier Ben Slimane,34.03715,-4.9998,,
Agadir,Hay Massira,30.4017834,-9.5730536,Souss-Massa,Agadir Ida-Outanane Prefecture
Tanger,Lalla Chafia,35.7714855,-5.8172455,Tangier-Tetouan-Al Hoceima,Prefecture of Tangier - Assilah
Beni Malek,Toute la ville,34.70676,-6.00473,,
Marrakech,Bd Moulay Abdellah,31.6264677,-7.9921568,Marrakech-Safi,Marrakesh Prefecture
Mrir't,Toute la ville,33.16537,-5.56338,,
Safi,Kawki,32.16667,-8.83333,,
Casablanca,Derb Omar,33.5899353,-7.6096878,,Prefecture of Casablanca
Tétouan,Dersa,35.5803137,-5.372421,Tangier-Tetouan-Al Hoceima,Tetouan Province
Mohammedia,Kasbah,33.6992164,-7.3889805,,Prefecture of Mohammédia
Dakhla,Al Kassam,23.7358756,-15.9144698,Dakhla-Oued Ed-Dahab,
El Jadida,Al Kodia,32.9,-8.5,,
Oujda,Grand boulevard Ahfir,34.68053,-1.90764,,
Casablanca,Longchamps,33.5820151,-7.6609078,Casablanca-Settat,Prefecture of Casablanca
Benslimane,Hay al mohammadi,33.62018,-7.1246,,
Fès,Moulay Abdallah,33.9019916,-5.5460652,Fez-Meknes,Meknès Prefecture
Ifrane Atlas Saghir,Toute la ville,29.21752,-9.49688,,
Kénitra,Diour 10000,34.2478186,-6.5444405,,Kénitra Province
Temara,Derb Sahraoua,33.92866,-6.90656,,
Meknès,Rouamzine,33.8943465,-5.5605202,Fez-Meknes,Meknès Prefecture
Tanger,Ain El Hayani,35.76727,-5.79975,,
Taounate,Toute la ville,34.5,-4.83333,,
El Jadida,Al Qods,33.2361992,-8.495771,,El Jadida Province
Salé,Frougui,34.0575898,-6.7885704,,Prefecture of Salé
Afourar,Toute la ville,32.20721,-6.53824,,
Freija,Toute la ville,30.48693,-8.78957,,
Arekmane,Toute la ville,35.03333,-2.70932,,
Sidi Smail,Toute la ville,32.82268,-8.5081,,
Houara Oulad Raho,Toute la ville,34.19189,-3.30149,,
Safi,Sidi AbdelKrim,32.3108559,-9.2269873,Marrakech-Safi,Safi Province
Issen,Toute la ville,30.44115,-9.24084,,
El Jadida,Hay Nassim,33.2378558,-8.5226331,,El Jadida Province
Safi,Rhat A Rih,32.16667,-8.83333,,
Agadir,Wifaq,30.3929571,-9.5637186,Souss-Massa,Agadir Ida-Outanane Prefecture
Tanger,El Khair 1,34.9436275,-5.6571942,Tangier-Tetouan-Al Hoceima,Ouezzane Province
Rabat,Douar el Hajja,34.01325,-6.83255,,
Temara,Abbadi Braika,33.92866,-6.90656,,
Casablanca,Zone Industrielle,33.6013247,-7.4994285,,Prefecture of Casablanca
Tanger,Al Amal,35.7622384,-5.8194224,Tangier-Tetouan-Al Hoceima,Prefecture of Tangier - Assilah
Hrara,Toute la ville,32.42851,-9.17737,,
Fès,Hay Agadir,34.03715,-4.9998,,
Essaouira,Route de Safi,31.5280522,-9.6890348,Marrakech-Safi,Essaouira Province
Marrakech,El Ghoul,31.63416,-7.99994,,
Marrakech,Jnan ben chagra,31.63416,-7.99994,,
Temara,Massira 3,33.9265542,-6.8999464,,Skhirat-Témara Prefecture
Nador,Hay el idori,35.16813,-2.93352,,
Rabat,Abi Ragrag,34.01325,-6.83255,,
Al Aaroui,Toute la ville,35.02009,-3.00008,,
Driouch,Toute la ville,34.97705,-3.37902,,
Temara,Lazrak,33.92866,-6.90656,,
Ouad Eddahab,Toute la ville,32.0,-6.0,,
El Jadida,Cité Portugaise,33.2567967,-8.5023323,,El Jadida Province
Sidi Ali Ben Hamdouche,Toute la ville,32.0,-6.0,,
Sidi el Aîdi,Toute la ville,32.0,-6.0,,
Saidia,,35.0875,-2.23786,,
Salé,Hay Cheikh Lamfadel,34.0531,-6.79846,,
Meknès,Ben Mohammed,33.9032892,-5.5437867,Fez-Meknes,Meknès Prefecture
Tanger,Al Mandar Al Jamil,35.76727,-5.79975,,
Casablanca,Hay Moulay Rachid 1,33.5659199,-7.5682724,,Prefecture of Casablanca
Safi,Hay Sanyat Zine El Abidine,32.16667,-8.83333,,
Tata,Toute la ville,29.7562,-7.96836,,
Marrakech,Fassi,31.6580173,-8.0050394,Marrakech-Safi,Marrakesh Prefecture
Tanger,Médina,35.786408,-5.8109634,Tangier-Tetouan-Al Hoceima,Prefecture of Tangier - Assilah
Safi,Biyada,32.3047623,-9.2350339,Marrakech-Safi,Safi Province
Ifrane,Les jardins d'ifrane,33.33333,-5.25,,
Meknès,Zerhounia,33.9016318,-5.5794782,Fez-Meknes,Meknès Prefecture
Casablanca,Hay Moulay Rachid 5,33.5659199,-7.5682724,,Prefecture of Casablanca
Lahraouyine,Toute la ville,33.54593,-7.51721,,
Tanger,Mghayer,35.7508484,-5.8897233,Tangier-Tetouan-Al Hoceima,Prefecture of Tangier - Assilah
Loudaya,Toute la ville,31.6507,-8.30214,,
Zaouia Sidi Tahar,Toute la ville,30.50636,-9.09255,,
Dar Bel Amri,Toute la ville,34.16,-5.95,,
Ksar el-Kebir,,35.00174,-5.90534,,
Temara,Lazrek Nemsia,33.92866,-6.90656,,
Tit Mellil,,33.55808,-7.48647,,
Kénitra,Corcica,34.26101,-6.5802,,
Nador,Hay el madani,35.16813,-2.93352,,
Jorf El Melha,Toute la ville,34.49448,-5.50469,,
Sfassif,Toute la ville,33.92649,-5.83144,,
Ifrane,Zaouiat sidi abdeslam,33.5681827,-5.1337881,Fez-Meknes,Ifrane Province
Casablanca,Hay Moulay Rachid 6,33.5659199,-7.5682724,,Prefecture of Casablanca
Tamensourt,,32.0,-6.0,,
Tanger,Vieille montagne,35.76727,-5.79975,,
Safi,Lalla Hnia Hamria,32.16667,-8.83333,,
Safi,Swinia,32.16667,-8.83333,,
Kénitra,PAM,34.2498848,-6.5404129,,Kénitra Province
Temara,Messrour 2,33.92866,-6.90656,,
Agadir,Assaka,30.3783766,-9.5152871,Souss-Massa,Agadir Ida-Outanane Prefecture
Meknès,Mèdina,33.8994156,-5.5495139,Fez-Meknes,Meknès Prefecture
Agadir,Amicales,30.4313666,-9.5791672,Souss-Massa,Agadir Ida-Outanane Prefecture
Martil,,35.61662,-5.27522,,
Moulay Yaâcoub,Toute la ville,32.0,-6.0,,
Salé,Andalouss,33.8947601,-6.3276157,Rabat-Salé-Kénitra,Khémisset Province
Mohammedia,Diour Lakrai,33.68607,-7.38298,,
Temara,Oulad Ogba,33.92866,-6.90656,,
Meknassa Al Gharbia,Toute la ville,34.26809,-4.06907,,
Oulad Salah,Toute la ville,33.36721,-7.64371,,
Tétouan,Korat Essba,35.57845,-5.36837,,
Fès,Zone Industrielle Sidi Brahim,34.03715,-4.9998,,
Marrakech,Sidi Ben Slimane El Jazouli,31.6363126,-7.9917485,Marrakech-Safi,Marrakesh Prefecture
Nador,Issabanen,35.16813,-2.93352,,
Sidi Bou Othmane,Toute la ville,31.90226,-7.94169,,
Lakhiaita,Toute la ville,33.38238,-7.78585,,
Dakhla,Al Ghoufrane,30.41071,-9.55572,,
Safi,Sania,32.2802612,-9.2316113,Marrakech-Safi,Safi Province
Oujda,Hikma II,34.6474156,-1.9079968,Oriental,Oujda-Angad Prefecture
Tétouan,Laouziyine,35.57845,-5.36837,,
Mohammedia,Hay Mesk Lil,33.68607,-7.38298,,
Marrakech,Kechich,31.6399644,-7.9825926,Marrakech-Safi,Marrakesh Prefecture
Belfaa,Toute la ville,29.98204,-9.50541,,
Tanger,Benkirane,35.754196,-5.7895878,Tangier-Tetouan-Al Hoceima,Prefecture of Tangier - Assilah
Salé,Lakhmis,34.0531,-6.79846,,
Safi,Safiya,32.16667,-8.83333,,
Ait Ishaq,Toute la ville,32.72486,-5.80045,,
Temara,Madwaz,33.92866,-6.90656,,
Ain Aouda,,32.0,-6.0,,
Nador,Ouled tayeb,35.16813,-2.93352,,
Casablanca,Les Camps,33.58831,-7.61138,,
Benslimane,Hay Farah,33.62018,-7.1246,,
Tizgane,Toute la ville,35.20455,-4.89963,,
Safi,Biar,32.16667,-8.83333,,
Zagora,Toute la ville,30.33241,-5.8384,,
Figuig,Toute la ville,32.83333,-2.25,,
Sidi Boukhalkhal,Toute la ville,34.06935,-6.40033,,
Marrakech,Jnane Laafia,31.63416,-7.99994,,
M'hamid El Ghizlane,Toute la ville,32.0,-6.0,,
Ghmate,Toute la ville,31.42765,-7.7921,,
Marrakech,Arset El Maach,31.6188268,-7.9900445,Marrakech-Safi,Marrakesh Prefecture
Tanger,Nzaha,35.76727,-5.79975,,
Saka,Toute la ville,34.61809,-3.41726,,
Tétouan,Bled,35.1687988,-5.2629296,Tangier-Tetouan-Al Hoceima,Chefchaouen Province
Bhalil,Toute la ville,33.85194,-4.87228,,
Marrakech,Socoma,31.6192533,-8.064403,Marrakech-Safi,Marrakesh Prefecture
Ifrane,Résidence al arz,33.33333,-5.25,,
Marrakech,Berrima,31.6166864,-7.9803626,Marrakech-Safi,Marrakesh Prefecture
Essaouira,Medina,31.5145596,-9.7688948,Marrakech-Safi,Essaouira Province
Nador,Igounaf,35.178142,-2.9373661,Oriental,Nador Province
Tétouan,Mounia,35.57845,-5.36837,,
Agadir,Boutchakat,30.42018,-9.59815,,
Ifrane,La Prairie,33.33333,-5.25,,
Casablanca,Tantonville,33.58831,-7.61138,,
Casablanca,Lusitania,33.58831,-7.61138,,
Settat,Hay Kassam,33.0071381,-7.6311501,,Settat Province
Marrakech,Av Mohammed V,32.3105319,-9.2273613,Marrakech-Safi,Safi Province
Ain Legdah,Toute la ville,34.16459,-4.57105,,
Casablanca,La Gare,33.58831,-7.61138,,
Mohammedia,Quartier Du Soleil,33.707119,-7.3575802,,Prefecture of Mohammédia
Marchouch,Toute la ville,33.56754,-6.63337,,
Taroudant,Jamaa el Kbir,30.47028,-8.87695,,
Imi Ouaddar,Toute la ville,32.0,-6.0,,
Fès,Hay Ouifak,34.03715,-4.9998,,
Ain Tizgha,Toute la ville,33.65726,-7.03996,,
Essaouira,Nouvelle Ville,31.5106032,-9.7579112,Marrakech-Safi,Essaouira Province
Salé,Al Moukataa,34.0531,-6.79846,,
Agadir,Tassila,30.6560103,-9.6446738,Souss-Massa,Agadir Ida-Outanane Prefecture
Marrakech,Arset Ihiri,31.6375418,-7.9952744,Marrakech-Safi,Marrakesh Prefecture
Adaghas,Toute la ville,30.90253,-9.34362,,
El Jadida,Dar Assalam,32.9,-8.5,,
Zeghanghane,Toute la ville,35.15165,-3.01221,,
Essaouira,Borj,31.5029762,-9.7592422,Marrakech-Safi,Essaouira Province
Marrakech,Inara,31.6410774,-8.0530988,Marrakech-Safi,Marrakesh Prefecture
Marrakech,Arset El Houta,31.6303376,-7.9844273,Marrakech-Safi,Marrakesh Prefecture
Marrakech,Mouassine,31.6302329,-7.9900164,Marrakech-Safi,Marrakesh Prefecture
Abaynou,Toute la ville,29.07942,-9.9363,,
El Jadida,Riad Essalam,32.9,-8.5,,
Inchaden,Toute la ville,30.10004,-9.56186,,
Tinejdad,Toute la ville,31.51071,-5.02857,,
Agadir,Ihchach,30.4254499,-9.5842274,Souss-Massa,Agadir Ida-Outanane Prefecture
Safi,Safi 2,32.2909413,-9.2245461,Marrakech-Safi,Safi Province
Essaouira,Smimou,31.2090913,-9.7042744,Marrakech-Safi,Essaouira Province
Ait Boubidmane,Toute la ville,33.85045,-5.33065,,
El Beddouza,Toute la ville,32.0,-6.0,,
El Menzel,Toute la ville,34.61678,-4.17824,,
Nador,Tirakaa,35.16813,-2.93352,,
Fès,Ain Noqbi,34.03715,-4.9998,,
Bir Tam Tam,Toute la ville,33.97674,-4.64268,,
Taroudant,Benyara,30.4665886,-8.8786879,Souss-Massa,Taroudant Province
Safi,Mouna,32.285064,-9.2404688,Marrakech-Safi,Safi Province
Skhirat,Kasbah,33.8880039,-7.0128085,,Skhirat-Témara Prefecture
Tamri,Toute la ville,30.69602,-9.82972,,
Mohammedia,Hay Chabab,33.68607,-7.38298,,
Casablanca,Fonciere,33.5907814,-7.619923,Casablanca-Settat,Prefecture of Casablanca
Marrakech,Bab Lhmar,31.63416,-7.99994,,
Al Haouz,Toute la ville,31.34083,-7.91076,,
Ifrane,Cité al alkhawaine,33.33333,-5.25,,
Marrakech,Sanaoubar,31.6686216,-8.0280919,Marrakech-Safi,Marrakesh Prefecture
Essaouira,Sidi Kaouki,31.3557894,-9.7993315,Marrakech-Safi,Essaouira Province
Temara,Ittihad Arabi,33.92866,-6.90656,,
Marrakech,Zaouiat Lahdar,31.63416,-7.99994,,
Tiznit,,29.69742,-9.73162,,
Fès,Laayoun,34.0616571,-4.9744447,Fez-Meknes,Fez Prefecture
Arbaoua,Toute la ville,34.91318,-5.93081,,
Rabat,Riyad Extension,34.01325,-6.83255,,
Marrakech,Kaa El Machraa,31.63416,-7.99994,,
Benslimane,Hay Nejma,33.62018,-7.1246,,
El Jadida,Derb Al Hajjar,32.9,-8.5,,
Tétouan,Touilaa Foqia,35.57845,-5.36837,,
Anjra,Toute la ville,35.69254,-5.53814,,
Marrakech,Kbour Chou,31.63416,-7.99994,,
Marrakech,Hay Al Haouz,31.5567099,-7.6566672,Marrakech-Safi,Al Haouz Province
Kénitra,Inara,34.2585345,-6.5576513,,Kénitra Province
Marrakech,Hay Andalous,32.3176696,-9.2227357,Marrakech-Safi,Safi Province
Oujda,Park,34.68053,-1.90764,,
Casablanca,Hippodrome,33.58831,-7.61138,,
Safi,Achbar,32.3047804,-9.2374372,Marrakech-Safi,Safi Province
Tanger,Star Hill,35.76727,-5.79975,,
Marrakech,Oulad Said,31.98238,-7.71153,,
Tanger,El Oued,35.7720129,-5.8143176,Tangier-Tetouan-Al Hoceima,Prefecture of Tangier - Assilah
Saadla,Toute la ville,32.37703,-9.08991,,
Safi,Jnane Chkouri,32.16667,-8.83333,,
Guigou,Toute la ville,33.38236,-4.83299,,
Fès,Les Mérinides,34.0695115,-4.9819419,Fez-Meknes,Fez Prefecture
Naima,Toute la ville,34.59874,-2.21346,,
Benslimane,Hay al Hassani,33.62018,-7.1246,,
Salé,Dyour El ghaba,34.0531,-6.79846,,
Oujda,Hay massira,34.6682164,-1.908316,Oriental,Oujda-Angad Prefecture
Temara,Fadlallah,33.92866,-6.90656,,
Arfoud,Toute la ville,31.42742,-4.24032,,
Sidi Slimane Echcharraa,Toute la ville,32.0,-6.0,,
Safi,Hay Riyad,32.16667,-8.83333,,
Tanger,Les Rosiers,35.76727,-5.79975,,
Oujda,Bd Jaych Tahrir,34.68053,-1.90764,,
Ifrane,Club onicl,33.33333,-5.25,,
Sid L'mokhtar,Toute la ville,32.0,-6.0,,
Settat,Ahbas,33.0061443,-7.6175623,,Settat Province
Safi,Chenguite,32.16667,-8.83333,,
Fès,Jnane Eddar,34.03715,-4.9998,,
Echemmaia,Toute la ville,32.07054,-8.65324,,
Bouizakarne,Toute la ville,29.17535,-9.70639,,
Akhfennir,Toute la ville,28.09455,-12.05157,,
Tamouda Bay,Toute la ville,32.0,-6.0,,
Mohammedia,,33.68607,-7.38298,,
Benslimane,Karima,33.62018,-7.1246,,
Dakhla,Al Hana,30.41071,-9.55572,,
Nador,Tizighine,35.16813,-2.93352,,
Safi,Jnane El Mestari,32.16667,-8.83333,,
El Jadida,Port,33.2551514,-8.5003305,,El Jadida Province
Essaouira,Argana,31.5145327,-9.768573,Marrakech-Safi,Essaouira Province
Zaouiat Sidi Kacem,Toute la ville,35.47477,-5.22835,,
Marrakech,Lac Takerkoust,31.63416,-7.99994,,
Essaouira,Skala,31.5236484,-9.7526524,Marrakech-Safi,Essaouira Province
Tétouan,Sidi Al Mandri,35.5684801,-5.3726645,Tangier-Tetouan-Al Hoceima,Tetouan Province
Temara,Sable d'or,33.9164389,-6.9698375,,Skhirat-Témara Prefecture
Farkhana,Toute la ville,35.28776,-2.98533,,
Agdz,Toute la ville,30.69356,-6.44628,,
Missour,Toute la ville,33.04893,-3.98947,,
Ben Smim,Toute la ville,33.46891,-5.20804,,
Marrakech,Jawhar,31.6556887,-8.039765,Marrakech-Safi,Marrakesh Prefecture
Tanger,Cap spartel,35.7915279,-5.9256665,Tangier-Tetouan-Al Hoceima,Prefecture of Tangier - Assilah
Ait Yaazem,Toute la ville,33.73263,-5.57924,,
Had Bouhssoussen,Toute la ville,33.13496,-6.1348,,
Aarab Sebbah Ziz,Toute la ville,31.48442,-3.99818,,
Safi,Les courses,32.274,-9.244,Marrakech-Safi,Safi Province
Fès,Ben Debbab,34.0638765,-4.9943906,Fez-Meknes,Fez Prefecture
Ait Ouallal,Toute la ville,30.87975,-5.91311,,
Talmest,Toute la ville,31.82116,-9.34725,,
Amskroud,Toute la ville,30.4867,-9.37804,,
Oukaimden,Toute la ville,31.22231,-7.82865,,
Haouzia,Toute la ville,33.2172,-8.41901,,
Agadir,Ennahda,30.4254503,-9.586388,Souss-Massa,Agadir Ida-Outanane Prefecture
Sidi Abderrazak,Toute la ville,34.02924,-6.14777,,
Casablanca,Parc,33.7057201,-7.3975914,,Prefecture of Mohammédia
Marrakech,Michouar,31.63416,-7.99994,,
Mohammedia,Derb Jamila,33.68607,-7.38298,,
Galaz,Toute la ville,34.54424,-4.80355,,
Jaadar,Toute la ville,35.15952,-2.98918,,
El Ksiba,Toute la ville,32.56331,-6.02826,,
Cherrat,Toute la ville,33.77653,-7.10129,,
Tanger,Al Anbar,35.76727,-5.79975,,
Agadir,Hay Hassani,30.414876,-9.5839942,Souss-Massa,Agadir Ida-Outanane Prefecture
Tanger,Dher Ahjjam,35.76727,-5.79975,,
Safi,Darb Moulay Hassan,32.16667,-8.83333,,
Khemis Sidi Yahya,Toute la ville,33.79851,-6.2424,,
Ouled Berhil,Toute la ville,32.0,-6.0,,
Marrakech,Zaouia Sidi Ghalem,31.63416,-7.99994,,
Jamaat Shaim,Toute la ville,32.35156,-8.87441,,
Bni Drar,Toute la ville,34.8547,-1.99888,,
Tanger,Bouhout 1,35.7566828,-5.7923249,Tangier-Tetouan-Al Hoceima,Prefecture of Tangier - Assilah
Safi,Lkliaa,32.16667,-8.83333,,
Madagh,Toute la ville,35.01032,-2.33701,,
Tétouan,Boujdade,35.57845,-5.36837,,
Boukhalef,Toute la ville,35.7328,-5.89954,,
Rabat,Al Irfane,33.9816535,-6.8646296,,Rabat Prefecture
Taroudant,Assarag,30.469239,-8.8804648,Souss-Massa,Taroudant Province
Bni Khloug,Toute la ville,32.65733,-7.39129,,
Boulemane,Toute la ville,33.16667,-4.0,,
Safi,Hay El Majd,32.3176696,-9.2227357,Marrakech-Safi,Safi Province
Marrakech,Bab Atlas,31.6600915,-7.9171412,Marrakech-Safi,Marrakesh Prefecture
El Jebha,Toute la ville,35.21025,-4.66467,,
Tanant,Toute la ville,31.8618,-6.94268,,
El Jadida,Cheminoits,33.2362647,-8.5021346,,El Jadida Province
Khouribga,,32.93333,-6.6,,
Bouarfa,Toute la ville,32.53379,-1.96209,,
Taliouine,Toute la ville,30.52917,-7.91262,,
Tétouan,El Ensanche,35.57845,-5.36837,,
Marrakech,Hay Al Bahja,31.5645564,-8.0779626,Marrakech-Safi,Marrakesh Prefecture
Sidi Allal Tazi,Toute la ville,34.57749,-6.26242,,
